{"businesses": 
  [{"id": "Z1YYD-S7LW7G6JE2iZXJ1g", 
    "alias": "le-politique-austin", 
    "name": "Le Politique", 
    "image_url": "https://s3-media3.fl.yelpcdn.com/bphoto/mC8ogem2HnbIGY3cbgLz1A/o.jpg", 
    "is_closed": false, 
    "url": "https://www.yelp.com/biz/le-politique-austin?adjust_creative=msaIUXa9hXWZ-Y6bWRdI9A&utm_campaign=yelp_api_v3&utm_medium=api_v3_business_search&utm_source=msaIUXa9hXWZ-Y6bWRdI9A", 
    "review_count": 164, "categories": [{"alias": "french", "title": "French"}, {"alias": "wine_bars", "title": "Wine Bars"}, {"alias": "cakeshop", "title": "Patisserie/Cake Shop"}], "rating": 3.5, "coordinates": {"latitude": 30.26534, "longitude": -97.74905}, "transactions": [], "price": "$$", "location": {"address1": "110 San Antonio St", "address2": null, "address3": "", "city": "Austin", "zip_code": "78701", "country": "US", "state": "TX", "display_address": ["110 San Antonio St", "Austin, TX 78701"]}, "phone": "+15125807651", "display_phone": "(512) 580-7651", "distance": 32.42140969968315}, {"id": "PXDwg6vXCzmpqnht6qmAnw", "alias": "north-italia-austin-3", "name": "North Italia", "image_url": "https://s3-media2.fl.yelpcdn.com/bphoto/2fdj3b2AQElKnG-rknBMeg/o.jpg", "is_closed": false, "url": "https://www.yelp.com/biz/north-italia-austin-3?adjust_creative=msaIUXa9hXWZ-Y6bWRdI9A&utm_campaign=yelp_api_v3&utm_medium=api_v3_business_search&utm_source=msaIUXa9hXWZ-Y6bWRdI9A", "review_count": 130, "categories": [{"alias": "italian", "title": "Italian"}], "rating": 4.5, "coordinates": {"latitude": 30.2657513, "longitude": -97.7488741}, "transactions": [], "price": "$$", "location": {"address1": "500 W 2nd St", "address2": "Ste 123", "address3": null, "city": "Austin", "zip_code": "78701", "country": "US", "state": "TX", "display_address": ["500 W 2nd St", "Ste 123", "Austin, TX 78701"]}, "phone": "+15127775062", "display_phone": "(512) 777-5062", "distance": 54.80603844680066}, {"id": "aNX8OAI9CI662uxbWwsPHA", "alias": "flower-child-austin-4", "name": "Flower Child", "image_url": "https://s3-media2.fl.yelpcdn.com/bphoto/q08PcYhySogdLfwHI-K3TQ/o.jpg", "is_closed": false, "url": "https://www.yelp.com/biz/flower-child-austin-4?adjust_creative=msaIUXa9hXWZ-Y6bWRdI9A&utm_campaign=yelp_api_v3&utm_medium=api_v3_business_search&utm_source=msaIUXa9hXWZ-Y6bWRdI9A", "review_count": 140, "categories": [{"alias": "salad", "title": "Salad"}, {"alias": "newamerican", "title": "American (New)"}, {"alias": "vegan", "title": "Vegan"}], "rating": 4.0, "coordinates": {"latitude": 30.2657509, "longitude": -97.7488719}, "transactions": [], "price": "$$", "location": {"address1": "500 W 2nd St", "address2": "", "address3": null, "city": "Austin", "zip_code": "78701", "country": "US", "state": "TX", "display_address": ["500 W 2nd St", "Austin, TX 78701"]}, "phone": "+15127774132", "display_phone": "(512) 777-4132", "distance": 54.80603844680066}, {"id": "hpttZ0nryCCmV1hxwN3ZGg", "alias": "atx-cocina-austin", "name": "ATX Cocina", "image_url": "https://s3-media1.fl.yelpcdn.com/bphoto/Az1p1cPeKEPuX9LBTMMRQQ/o.jpg", "is_closed": false, "url": "https://www.yelp.com/biz/atx-cocina-austin?adjust_creative=msaIUXa9hXWZ-Y6bWRdI9A&utm_campaign=yelp_api_v3&utm_medium=api_v3_business_search&utm_source=msaIUXa9hXWZ-Y6bWRdI9A", "review_count": 171, "categories": [{"alias": "mexican", "title": "Mexican"}], "rating": 4.0, "coordinates": {"latitude": 30.2648936924533, "longitude": -97.7493680165415}, "transactions": [], "price": "$$$", "location": {"address1": "110 San Antonio St", "address2": "Ste 170", "address3": "", "city": "Austin", "zip_code": "78701", "country": "US", "state": "TX", "display_address": ["110 San Antonio St", "Ste 170", "Austin, TX 78701"]}, "phone": "+15122632322", "display_phone": "(512) 263-2322", "distance": 81.9594817053108}, {"id": "CTlBarw9SY56JzWdpA26Jw", "alias": "mad-greens-downtown-austin-austin", "name": "MAD Greens - Downtown Austin", "image_url": "https://s3-media3.fl.yelpcdn.com/bphoto/e1BAeT-9Pey0JKDr5JSY0w/o.jpg", "is_closed": false, "url": "https://www.yelp.com/biz/mad-greens-downtown-austin-austin?adjust_creative=msaIUXa9hXWZ-Y6bWRdI9A&utm_campaign=yelp_api_v3&utm_medium=api_v3_business_search&utm_source=msaIUXa9hXWZ-Y6bWRdI9A", "review_count": 12, "categories": [{"alias": "salad", "title": "Salad"}, {"alias": "juicebars", "title": "Juice Bars & Smoothies"}, {"alias": "vegetarian", "title": "Vegetarian"}], "rating": 3.5, "coordinates": {"latitude": 30.26534, "longitude": -97.74849}, "transactions": [], "price": "$$", "location": {"address1": "419 W 2nd St", "address2": null, "address3": "", "city": "Austin", "zip_code": "78701", "country": "US", "state": "TX", "display_address": ["419 W 2nd St", "Austin, TX 78701"]}, "phone": "+15122130160", "display_phone": "(512) 213-0160", "distance": 99.98728386691002}, {"id": "qjs5bXZQHQQ3zQxhAqbyfw", "alias": "alimentari-28-austin", "name": "Alimentari 28", "image_url": "https://s3-media2.fl.yelpcdn.com/bphoto/2DXpyhwY0AtBtI34iEYq1w/o.jpg", "is_closed": false, "url": "https://www.yelp.com/biz/alimentari-28-austin?adjust_creative=msaIUXa9hXWZ-Y6bWRdI9A&utm_campaign=yelp_api_v3&utm_medium=api_v3_business_search&utm_source=msaIUXa9hXWZ-Y6bWRdI9A", "review_count": 20, "categories": [{"alias": "gelato", "title": "Gelato"}, {"alias": "italian", "title": "Italian"}, {"alias": "breakfast_brunch", "title": "Breakfast & Brunch"}], "rating": 4.5, "coordinates": {"latitude": 30.26569, "longitude": -97.74851}, "transactions": [], "location": {"address1": "454 W 2nd St", "address2": "", "address3": null, "city": "Austin", "zip_code": "78701", "country": "US", "state": "TX", "display_address": ["454 W 2nd St", "Austin, TX 78701"]}, "phone": "+15123581735", "display_phone": "(512) 358-1735", "distance": 109.78109317317305}, {"id": "Vu_fEV-GjXGURW9zSRBiZg", "alias": "yummi-joy-austin", "name": "Yummi Joy", "image_url": "https://s3-media1.fl.yelpcdn.com/bphoto/0bhEHqaZ1wGs-3alnd4JaQ/o.jpg", "is_closed": false, "url": "https://www.yelp.com/biz/yummi-joy-austin?adjust_creative=msaIUXa9hXWZ-Y6bWRdI9A&utm_campaign=yelp_api_v3&utm_medium=api_v3_business_search&utm_source=msaIUXa9hXWZ-Y6bWRdI9A", "review_count": 19, "categories": [{"alias": "candy", "title": "Candy Stores"}, {"alias": "icecream", "title": "Ice Cream & Frozen Yogurt"}, {"alias": "coffee", "title": "Coffee & Tea"}], "rating": 4.5, "coordinates": {"latitude": 30.2654030847857, "longitude": -97.7485015243292}, "transactions": [], "price": "$", "location": {"address1": "409 W 2nd St", "address2": "", "address3": null, "city": "Austin", "zip_code": "78701", "country": "US", "state": "TX", "display_address": ["409 W 2nd St", "Austin, TX 78701"]}, "phone": "+15122962195", "display_phone": "(512) 296-2195", "distance": 112.47895286907527}, {"id": "yPpHMQ-QJxEEOor9C5Fl_A", "alias": "numero28-austin", "name": "Numero28", "image_url": "https://s3-media3.fl.yelpcdn.com/bphoto/ja5k8--cLqGYy-xBO1VzPQ/o.jpg", "is_closed": false, "url": "https://www.yelp.com/biz/numero28-austin?adjust_creative=msaIUXa9hXWZ-Y6bWRdI9A&utm_campaign=yelp_api_v3&utm_medium=api_v3_business_search&utm_source=msaIUXa9hXWZ-Y6bWRdI9A", "review_count": 324, "categories": [{"alias": "italian", "title": "Italian"}, {"alias": "gelato", "title": "Gelato"}, {"alias": "pizza", "title": "Pizza"}], "rating": 4.0, "coordinates": {"latitude": 30.2656718, "longitude": -97.7484536}, "transactions": [], "price": "$$", "location": {"address1": "452 W 2nd St", "address2": "", "address3": "", "city": "Austin", "zip_code": "78701", "country": "US", "state": "TX", "display_address": ["452 W 2nd St", "Austin, TX 78701"]}, "phone": "+15124945510", "display_phone": "(512) 494-5510", "distance": 115.54748902081491}, {"id": "vg49JOe4ntuKuOYFUmShaA", "alias": "shes-not-here-austin", "name": "She's Not Here", "image_url": "https://s3-media4.fl.yelpcdn.com/bphoto/hLt7EFFEKov-hN9l4_4omA/o.jpg", "is_closed": false, "url": "https://www.yelp.com/biz/shes-not-here-austin?adjust_creative=msaIUXa9hXWZ-Y6bWRdI9A&utm_campaign=yelp_api_v3&utm_medium=api_v3_business_search&utm_source=msaIUXa9hXWZ-Y6bWRdI9A", "review_count": 41, "categories": [{"alias": "panasian", "title": "Pan Asian"}, {"alias": "hawaiian", "title": "Hawaiian"}, {"alias": "cocktailbars", "title": "Cocktail Bars"}], "rating": 4.0, "coordinates": {"latitude": 30.2656463300085, "longitude": -97.7483603730798}, "transactions": [], "location": {"address1": "440 W 2nd St", "address2": "", "address3": null, "city": "Austin", "zip_code": "78701", "country": "US", "state": "TX", "display_address": ["440 W 2nd St", "Austin, TX 78701"]}, "phone": "+15128881970", "display_phone": "(512) 888-1970", "distance": 124.29550586492931}, {"id": "WqSAjqv0XwfsYBg70dHBqA", "alias": "polvos-downtown-austin-2", "name": "Polvos Downtown", "image_url": "https://s3-media2.fl.yelpcdn.com/bphoto/jUYhkQKqqdyJjuNX7z6PJg/o.jpg", "is_closed": false, "url": "https://www.yelp.com/biz/polvos-downtown-austin-2?adjust_creative=msaIUXa9hXWZ-Y6bWRdI9A&utm_campaign=yelp_api_v3&utm_medium=api_v3_business_search&utm_source=msaIUXa9hXWZ-Y6bWRdI9A", "review_count": 30, "categories": [{"alias": "mexican", "title": "Mexican"}], "rating": 3.5, "coordinates": {"latitude": 30.2667874375251, "longitude": -97.7500332021079}, "transactions": [], "price": "$$", "location": {"address1": "360 Nueces St", "address2": "", "address3": null, "city": "Austin", "zip_code": "78701", "country": "US", "state": "TX", "display_address": ["360 Nueces St", "Austin, TX 78701"]}, "phone": "+15124944064", "display_phone": "(512) 494-4064", "distance": 138.22888781984307}, {"id": "s1NIISfH0aZjYSxiPBsAig", "alias": "violet-crown-cinema-austin", "name": "Violet Crown Cinema", "image_url": "https://s3-media3.fl.yelpcdn.com/bphoto/mqcqRT6iXh7RvBxFLFI_0A/o.jpg", "is_closed": false, "url": "https://www.yelp.com/biz/violet-crown-cinema-austin?adjust_creative=msaIUXa9hXWZ-Y6bWRdI9A&utm_campaign=yelp_api_v3&utm_medium=api_v3_business_search&utm_source=msaIUXa9hXWZ-Y6bWRdI9A", "review_count": 385, "categories": [{"alias": "movietheaters", "title": "Cinema"}, {"alias": "cafes", "title": "Cafes"}, {"alias": "bars", "title": "Bars"}], "rating": 4.0, "coordinates": {"latitude": 30.26554, "longitude": -97.74806}, "transactions": [], "location": {"address1": "434 W 2nd St", "address2": "", "address3": "", "city": "Austin", "zip_code": "78701", "country": "US", "state": "TX", "display_address": ["434 W 2nd St", "Austin, TX 78701"]}, "phone": "+15124959600", "display_phone": "(512) 495-9600", "distance": 139.6334201663621}, {"id": "eJ7X_8KXVlyHZtGrrLz4yg", "alias": "lamberts-downtown-barbecue-austin", "name": "Lamberts Downtown Barbecue", "image_url": "https://s3-media3.fl.yelpcdn.com/bphoto/EC3SLSOmK4zR2DXUTEH1aQ/o.jpg", "is_closed": false, "url": "https://www.yelp.com/biz/lamberts-downtown-barbecue-austin?adjust_creative=msaIUXa9hXWZ-Y6bWRdI9A&utm_campaign=yelp_api_v3&utm_medium=api_v3_business_search&utm_source=msaIUXa9hXWZ-Y6bWRdI9A", "review_count": 1560, "categories": [{"alias": "bbq", "title": "Barbeque"}, {"alias": "breakfast_brunch", "title": "Breakfast & Brunch"}, {"alias": "sandwiches", "title": "Sandwiches"}], "rating": 4.0, "coordinates": {"latitude": 30.2652, "longitude": -97.74785}, "transactions": [], "price": "$$", "location": {"address1": "401 W 2nd St", "address2": "", "address3": "", "city": "Austin", "zip_code": "78701", "country": "US", "state": "TX", "display_address": ["401 W 2nd St", "Austin, TX 78701"]}, "phone": "+15124941500", "display_phone": "(512) 494-1500", "distance": 172.0386787991227}, {"id": "_kausCV5hhZmcDunytThxQ", "alias": "margaret-moser-plaza-austin", "name": "Margaret Moser Plaza", "image_url": "https://s3-media4.fl.yelpcdn.com/bphoto/X0NCnpXuf5lXeBQovovqeA/o.jpg", "is_closed": false, "url": "https://www.yelp.com/biz/margaret-moser-plaza-austin?adjust_creative=msaIUXa9hXWZ-Y6bWRdI9A&utm_campaign=yelp_api_v3&utm_medium=api_v3_business_search&utm_source=msaIUXa9hXWZ-Y6bWRdI9A", "review_count": 2, "categories": [{"alias": "localflavor", "title": "Local Flavor"}], "rating": 4.0, "coordinates": {"latitude": 30.2670889977643, "longitude": -97.7501456436045}, "transactions": [], "location": {"address1": "W 3rd St", "address2": "", "address3": "", "city": "Austin", "zip_code": "", "country": "US", "state": "TX", "display_address": ["W 3rd St", "Austin, TX"]}, "phone": "", "display_phone": "", "distance": 173.42939512527062}, {"id": "IhsJHBMamH3wrjOdZSYu5g", "alias": "la-condesa-austin", "name": "La Condesa", "image_url": "https://s3-media2.fl.yelpcdn.com/bphoto/cP2JO08Aaw0llmbeGsqwbw/o.jpg", "is_closed": false, "url": "https://www.yelp.com/biz/la-condesa-austin?adjust_creative=msaIUXa9hXWZ-Y6bWRdI9A&utm_campaign=yelp_api_v3&utm_medium=api_v3_business_search&utm_source=msaIUXa9hXWZ-Y6bWRdI9A", "review_count": 1295, "categories": [{"alias": "mexican", "title": "Mexican"}], "rating": 3.5, "coordinates": {"latitude": 30.2656391, "longitude": -97.7477811}, "transactions": [], "price": "$$", "location": {"address1": "400A W 2nd St", "address2": "", "address3": "", "city": "Austin", "zip_code": "78701", "country": "US", "state": "TX", "display_address": ["400A W 2nd St", "Austin, TX 78701"]}, "phone": "+15124990300", "display_phone": "(512) 499-0300", "distance": 179.84975994284426}, {"id": "5UrIw2HJe8Lbf2A_20inLg", "alias": "trifecta-on-3rd-austin", "name": "Trifecta On 3rd", "image_url": "https://s3-media3.fl.yelpcdn.com/bphoto/P7de9TMDWHml1fCEdB4_KA/o.jpg", "is_closed": false, "url": "https://www.yelp.com/biz/trifecta-on-3rd-austin?adjust_creative=msaIUXa9hXWZ-Y6bWRdI9A&utm_campaign=yelp_api_v3&utm_medium=api_v3_business_search&utm_source=msaIUXa9hXWZ-Y6bWRdI9A", "review_count": 75, "categories": [{"alias": "lounges", "title": "Lounges"}, {"alias": "sportsbars", "title": "Sports Bars"}, {"alias": "pizza", "title": "Pizza"}], "rating": 3.5, "coordinates": {"latitude": 30.26744, "longitude": -97.74941}, "transactions": [], "price": "$$", "location": {"address1": "360 Nueces St", "address2": "Ste 30", "address3": "", "city": "Austin", "zip_code": "78701", "country": "US", "state": "TX", "display_address": ["360 Nueces St", "Ste 30", "Austin, TX 78701"]}, "phone": "+15123209909", "display_phone": "(512) 320-9909", "distance": 192.86530424035973}, {"id": "mchBqbUa0XU5EbaCyEA1pw", "alias": "cookbook-bar-and-cafe-austin-2", "name": "Cookbook Bar & Cafe", "image_url": "https://s3-media3.fl.yelpcdn.com/bphoto/9eibImR094kZ5B5JtYHo0g/o.jpg", "is_closed": false, "url": "https://www.yelp.com/biz/cookbook-bar-and-cafe-austin-2?adjust_creative=msaIUXa9hXWZ-Y6bWRdI9A&utm_campaign=yelp_api_v3&utm_medium=api_v3_business_search&utm_source=msaIUXa9hXWZ-Y6bWRdI9A", "review_count": 25, "categories": [{"alias": "cafes", "title": "Cafes"}], "rating": 3.0, "coordinates": {"latitude": 30.26613, "longitude": -97.75178}, "transactions": [], "price": "$", "location": {"address1": "710 W Cesar Chavez St", "address2": "", "address3": null, "city": "Austin", "zip_code": "78701", "country": "US", "state": "TX", "display_address": ["710 W Cesar Chavez St", "Austin, TX 78701"]}, "phone": "", "display_phone": "", "distance": 205.89323423698676}, {"id": "yKI4_1gqV5rC0w-tH_BOwQ", "alias": "thundercloud-subs-austin-25", "name": "ThunderCloud Subs", "image_url": "https://s3-media3.fl.yelpcdn.com/bphoto/R7jEHvNtrZr4UTEyZZSbsQ/o.jpg", "is_closed": false, "url": "https://www.yelp.com/biz/thundercloud-subs-austin-25?adjust_creative=msaIUXa9hXWZ-Y6bWRdI9A&utm_campaign=yelp_api_v3&utm_medium=api_v3_business_search&utm_source=msaIUXa9hXWZ-Y6bWRdI9A", "review_count": 30, "categories": [{"alias": "sandwiches", "title": "Sandwiches"}], "rating": 3.5, "coordinates": {"latitude": 30.2674947261017, "longitude": -97.7493902463367}, "transactions": [], "price": "$", "location": {"address1": "360 Nueces St", "address2": "Ste 80", "address3": null, "city": "Austin", "zip_code": "78701", "country": "US", "state": "TX", "display_address": ["360 Nueces St", "Ste 80", "Austin, TX 78701"]}, "phone": "+15124727827", "display_phone": "(512) 472-7827", "distance": 213.45744791390115}, {"id": "kkgOp6v-z_iui8lv96qmTQ", "alias": "juan-pelota-austin", "name": "Juan Pelota", "image_url": "https://s3-media4.fl.yelpcdn.com/bphoto/QLODQU-OW02xpShuZWAQeQ/o.jpg", "is_closed": false, "url": "https://www.yelp.com/biz/juan-pelota-austin?adjust_creative=msaIUXa9hXWZ-Y6bWRdI9A&utm_campaign=yelp_api_v3&utm_medium=api_v3_business_search&utm_source=msaIUXa9hXWZ-Y6bWRdI9A", "review_count": 126, "categories": [{"alias": "coffee", "title": "Coffee & Tea"}], "rating": 4.0, "coordinates": {"latitude": 30.26778, "longitude": -97.74912}, "transactions": [], "price": "$", "location": {"address1": "4th & Nueces Streets", "address2": "", "address3": "", "city": "Austin", "zip_code": "78701", "country": "US", "state": "TX", "display_address": ["4th & Nueces Streets", "Austin, TX 78701"]}, "phone": "+15124730222", "display_phone": "(512) 473-0222", "distance": 248.26507351277652}, {"id": "eh12k4A3yeF7vK-fEX6lrw", "alias": "austin-city-hall-austin", "name": "Austin City Hall", "image_url": "https://s3-media1.fl.yelpcdn.com/bphoto/o_maOg1YWdTyeytZYwlJEw/o.jpg", "is_closed": false, "url": "https://www.yelp.com/biz/austin-city-hall-austin?adjust_creative=msaIUXa9hXWZ-Y6bWRdI9A&utm_campaign=yelp_api_v3&utm_medium=api_v3_business_search&utm_source=msaIUXa9hXWZ-Y6bWRdI9A", "review_count": 22, "categories": [{"alias": "landmarks", "title": "Landmarks & Historical Buildings"}], "rating": 3.5, "coordinates": {"latitude": 30.264787, "longitude": -97.747215}, "transactions": [], "location": {"address1": "301 W 2nd St", "address2": null, "address3": "", "city": "Austin", "zip_code": "78701", "country": "US", "state": "TX", "display_address": ["301 W 2nd St", "Austin, TX 78701"]}, "phone": "+15129747819", "display_phone": "(512) 974-7819", "distance": 250.5192134442816}, {"id": "R-1P_G_pskiVDqkkPF-ivA", "alias": "austin-java-austin-3", "name": "Austin Java", "image_url": "https://s3-media2.fl.yelpcdn.com/bphoto/kzlq0D40Z0UMnatZW832FA/o.jpg", "is_closed": false, "url": "https://www.yelp.com/biz/austin-java-austin-3?adjust_creative=msaIUXa9hXWZ-Y6bWRdI9A&utm_campaign=yelp_api_v3&utm_medium=api_v3_business_search&utm_source=msaIUXa9hXWZ-Y6bWRdI9A", "review_count": 237, "categories": [{"alias": "coffee", "title": "Coffee & Tea"}, {"alias": "breakfast_brunch", "title": "Breakfast & Brunch"}, {"alias": "tradamerican", "title": "American (Traditional)"}], "rating": 3.5, "coordinates": {"latitude": 30.264979, "longitude": -97.747078}, "transactions": [], "price": "$", "location": {"address1": "301 W 2nd St", "address2": "", "address3": "", "city": "Austin", "zip_code": "78701", "country": "US", "state": "TX", "display_address": ["301 W 2nd St", "Austin, TX 78701"]}, "phone": "+15124819400", "display_phone": "(512) 481-9400", "distance": 256.40652502903515}], "total": 2000, "region": {"center": {"longitude": -97.74965286254883, "latitude": 30.26558850203667}}}